{
  "id": "shanghai",
  "name": "上海",
  "center": {
    "lat": 31.2304,
    "lng": 121.4737
  },
  "zoom": 12,
  "lineColors": {
    "1号线": "#E53935",
    "2号线": "#43A047",
    "3号线": "#FFD600",
    "4号线": "#5E35B1",
    "5号线": "#9C27B0",
    "6号线": "#FF7043",
    "7号线": "#00ACC1",
    "8号线": "#00897B",
    "9号线": "#FB8C00",
    "10号线": "#795548",
    "11号线": "#8E24AA",
    "12号线": "#00BCD4",
    "13号线": "#F4511E",
    "14号线": "#6D4C41",
    "15号线": "#546E7A",
    "16号线": "#8BC34A",
    "17号线": "#FFB300",
    "18号线": "#1A5CD6",
    "磁悬浮": "#D81B60"
  },
  "lines": [
    {
      "name": "1号线",
      "color": "#E53935",
      "stations": [
        { "name": "富锦路", "lat": 31.3895, "lng": 121.4967 },
        { "name": "友谊西路", "lat": 31.3806, "lng": 121.4893 },
        { "name": "宝安公路", "lat": 31.3706, "lng": 121.4819 },
        { "name": "共富新村", "lat": 31.3586, "lng": 121.4745 },
        { "name": "呼兰路", "lat": 31.3475, "lng": 121.4678 },
        { "name": "通河新村", "lat": 31.3376, "lng": 121.4605 },
        { "name": "共康路", "lat": 31.3279, "lng": 121.4532 },
        { "name": "彭浦新村", "lat": 31.3182, "lng": 121.4459 },
        { "name": "汶水路", "lat": 31.2992, "lng": 121.4416 },
        { "name": "上海马戏城", "lat": 31.2891, "lng": 121.4450 },
        { "name": "延长路", "lat": 31.2792, "lng": 121.4483 },
        { "name": "中山北路", "lat": 31.2682, "lng": 121.4513 },
        { "name": "上海火车站", "lat": 31.2503, "lng": 121.4511 },
        { "name": "汉中路", "lat": 31.2432, "lng": 121.4606 },
        { "name": "新闸路", "lat": 31.2367, "lng": 121.4669 },
        { "name": "人民广场", "lat": 31.2304, "lng": 121.4737 },
        { "name": "黄陂南路", "lat": 31.2236, "lng": 121.4761 },
        { "name": "陕西南路", "lat": 31.2156, "lng": 121.4584 },
        { "name": "常熟路", "lat": 31.2104, "lng": 121.4503 },
        { "name": "衡山路", "lat": 31.2031, "lng": 121.4391 },
        { "name": "徐家汇", "lat": 31.1938, "lng": 121.4376 },
        { "name": "上海体育馆", "lat": 31.1828, "lng": 121.4365 },
        { "name": "漕宝路", "lat": 31.1717, "lng": 121.4266 },
        { "name": "上海南站", "lat": 31.1515, "lng": 121.4258 },
        { "name": "锦江乐园", "lat": 31.1396, "lng": 121.4212 },
        { "name": "莲花路", "lat": 31.1296, "lng": 121.4069 },
        { "name": "外环路", "lat": 31.1195, "lng": 121.3925 },
        { "name": "莘庄", "lat": 31.1112, "lng": 121.3856 }
      ]
    },
    {
      "name": "2号线",
      "color": "#43A047",
      "stations": [
        { "name": "徐泾东", "lat": 31.1939, "lng": 121.2902 },
        { "name": "虹桥火车站", "lat": 31.1988, "lng": 121.3206 },
        { "name": "虹桥2号航站楼", "lat": 31.1962, "lng": 121.3470 },
        { "name": "淞虹路", "lat": 31.2200, "lng": 121.3636 },
        { "name": "北新泾", "lat": 31.2247, "lng": 121.3795 },
        { "name": "威宁路", "lat": 31.2245, "lng": 121.3954 },
        { "name": "娄山关路", "lat": 31.2233, "lng": 121.4115 },
        { "name": "中山公园", "lat": 31.2251, "lng": 121.4264 },
        { "name": "江苏路", "lat": 31.2256, "lng": 121.4396 },
        { "name": "静安寺", "lat": 31.2245, "lng": 121.4483 },
        { "name": "南京西路", "lat": 31.2286, "lng": 121.4589 },
        { "name": "人民广场", "lat": 31.2304, "lng": 121.4737 },
        { "name": "南京东路", "lat": 31.2376, "lng": 121.4871 },
        { "name": "陆家嘴", "lat": 31.2398, "lng": 121.5012 },
        { "name": "东昌路", "lat": 31.2391, "lng": 121.5153 },
        { "name": "世纪大道", "lat": 31.2340, "lng": 121.5280 },
        { "name": "上海科技馆", "lat": 31.2210, "lng": 121.5440 },
        { "name": "世纪公园", "lat": 31.2137, "lng": 121.5577 },
        { "name": "龙阳路", "lat": 31.2030, "lng": 121.5742 },
        { "name": "张江高科", "lat": 31.2076, "lng": 121.5908 },
        { "name": "金科路", "lat": 31.2113, "lng": 121.6106 },
        { "name": "广兰路", "lat": 31.2145, "lng": 121.6282 },
        { "name": "唐镇", "lat": 31.2215, "lng": 121.6574 },
        { "name": "创新中路", "lat": 31.2276, "lng": 121.6759 },
        { "name": "华夏东路", "lat": 31.2300, "lng": 121.6970 },
        { "name": "川沙", "lat": 31.2352, "lng": 121.7161 },
        { "name": "凌空路", "lat": 31.2411, "lng": 121.7367 },
        { "name": "远东大道", "lat": 31.2473, "lng": 121.7580 },
        { "name": "海天三路", "lat": 31.2512, "lng": 121.7807 },
        { "name": "浦东国际机场", "lat": 31.2428, "lng": 121.8089 }
      ]
    },
    {
      "name": "3号线",
      "color": "#FFD600",
      "stations": [
        { "name": "江杨北路", "lat": 31.3983, "lng": 121.4530 },
        { "name": "铁力路", "lat": 31.3930, "lng": 121.4681 },
        { "name": "友谊路", "lat": 31.3941, "lng": 121.4818 },
        { "name": "宝杨路", "lat": 31.3867, "lng": 121.4921 },
        { "name": "水产路", "lat": 31.3769, "lng": 121.4970 },
        { "name": "淞滨路", "lat": 31.3653, "lng": 121.5011 },
        { "name": "张华浜", "lat": 31.3529, "lng": 121.5047 },
        { "name": "淞发路", "lat": 31.3408, "lng": 121.5065 },
        { "name": "长江南路", "lat": 31.3191, "lng": 121.4968 },
        { "name": "殷高西路", "lat": 31.3070, "lng": 121.4869 },
        { "name": "江湾镇", "lat": 31.2933, "lng": 121.4825 },
        { "name": "大柏树", "lat": 31.2837, "lng": 121.4781 },
        { "name": "赤峰路", "lat": 31.2746, "lng": 121.4773 },
        { "name": "虹口足球场", "lat": 31.2653, "lng": 121.4727 },
        { "name": "东宝兴路", "lat": 31.2568, "lng": 121.4733 },
        { "name": "上海火车站", "lat": 31.2503, "lng": 121.4511 },
        { "name": "中潭路", "lat": 31.2512, "lng": 121.4326 },
        { "name": "镇坪路", "lat": 31.2486, "lng": 121.4217 },
        { "name": "曹杨路", "lat": 31.2438, "lng": 121.4138 },
        { "name": "金沙江路", "lat": 31.2347, "lng": 121.4141 },
        { "name": "中山公园", "lat": 31.2251, "lng": 121.4264 },
        { "name": "延安西路", "lat": 31.2106, "lng": 121.4254 },
        { "name": "虹桥路", "lat": 31.2001, "lng": 121.4251 },
        { "name": "宜山路", "lat": 31.1859, "lng": 121.4280 },
        { "name": "漕溪路", "lat": 31.1780, "lng": 121.4384 },
        { "name": "龙漕路", "lat": 31.1702, "lng": 121.4447 },
        { "name": "石龙路", "lat": 31.1601, "lng": 121.4504 },
        { "name": "上海南站", "lat": 31.1515, "lng": 121.4258 }
      ]
    },
    {
      "name": "4号线",
      "color": "#5E35B1",
      "stations": [
        { "name": "宜山路", "lat": 31.1859, "lng": 121.4280 },
        { "name": "上海体育馆", "lat": 31.1828, "lng": 121.4365 },
        { "name": "上海体育场", "lat": 31.1797, "lng": 121.4450 },
        { "name": "大木桥路", "lat": 31.1871, "lng": 121.4579 },
        { "name": "东安路", "lat": 31.1928, "lng": 121.4636 },
        { "name": "上海游泳馆", "lat": 31.2044, "lng": 121.4660 },
        { "name": "宜山路", "lat": 31.1859, "lng": 121.4280 }
      ]
    },
    {
      "name": "10号线",
      "color": "#795548",
      "stations": [
        { "name": "虹桥火车站", "lat": 31.1988, "lng": 121.3206 },
        { "name": "虹桥2号航站楼", "lat": 31.1962, "lng": 121.3470 },
        { "name": "虹桥1号航站楼", "lat": 31.1934, "lng": 121.3667 },
        { "name": "上海动物园", "lat": 31.1976, "lng": 121.3886 },
        { "name": "龙溪路", "lat": 31.2022, "lng": 121.4005 },
        { "name": "水城路", "lat": 31.2086, "lng": 121.4136 },
        { "name": "伊犁路", "lat": 31.2093, "lng": 121.4271 },
        { "name": "宋园路", "lat": 31.2068, "lng": 121.4371 },
        { "name": "虹桥路", "lat": 31.2001, "lng": 121.4251 },
        { "name": "交通大学", "lat": 31.2031, "lng": 121.4391 },
        { "name": "上海图书馆", "lat": 31.2119, "lng": 121.4477 },
        { "name": "陕西南路", "lat": 31.2156, "lng": 121.4584 },
        { "name": "新天地", "lat": 31.2181, "lng": 121.4732 },
        { "name": "老西门", "lat": 31.2224, "lng": 121.4832 },
        { "name": "豫园", "lat": 31.2278, "lng": 121.4925 },
        { "name": "南京东路", "lat": 31.2376, "lng": 121.4871 },
        { "name": "天潼路", "lat": 31.2478, "lng": 121.4915 },
        { "name": "四川北路", "lat": 31.2564, "lng": 121.4878 },
        { "name": "海伦路", "lat": 31.2640, "lng": 121.4923 },
        { "name": "邮电新村", "lat": 31.2702, "lng": 121.5022 },
        { "name": "四平路", "lat": 31.2796, "lng": 121.5053 },
        { "name": "同济大学", "lat": 31.2922, "lng": 121.5036 },
        { "name": "国权路", "lat": 31.3015, "lng": 121.5071 },
        { "name": "五角场", "lat": 31.3076, "lng": 121.5113 },
        { "name": "江湾体育场", "lat": 31.3134, "lng": 121.5180 },
        { "name": "三门路", "lat": 31.3218, "lng": 121.5168 },
        { "name": "江湾城", "lat": 31.3311, "lng": 121.5157 },
        { "name": "新江湾城", "lat": 31.3409, "lng": 121.5177 }
      ]
    }
  ]
}
